ï»¿stop_id,stop_name,stop_lat,stop_lon
1,Campana (Sierpes),37.392658,-5.9953113
2,MenÃ©ndez Pelayo (Puerta Carmona),37.388371,-5.9849925
3,MenÃ©ndez Pelayo (Puerta de La Carne),37.386154,-5.9860196
4,MenÃ©ndez Pelayo (Juzgados),37.382858,-5.9877234
5,Avda. MarÃ­a Luisa (Teatro Lope de Vega),37.378342,-5.9901185
6,Avda. Parsi (Menorca),37.37949,-5.9190974
7,Plaza del Duque (La Campana),37.39267,-5.9951291
8,Calatrava (Alameda de HÃ©rcules),37.401508,-5.9940667
9,Plaza Ponce de LeÃ³n,37.393009,-5.9876027
10,PagÃ©s del Corro (Troya),37.38118,-6.0005012
11,JosÃ© GalÃ¡n Merino (Papachina),37.426949,-5.9867978
12,San Jorge (Altozano),37.385445,-6.0041275
13,Castilla (Procurador),37.387489,-6.0059328
14,Navarra (Larache),37.425285,-5.9855103
15,Torneo (BaÃ±os),37.39629,-6.001936
16,Torneo (Puerta de San Juan),37.400803,-5.9981008
17,Blanquillo (Barqueta),37.403084,-5.9952626
18,Resolana (Feria),37.403351,-5.9922185
19,Parlamento de AndalucÃ­a (Macarena),37.403069,-5.9884901
20,Ronda de Capuchinos (San JuliÃ¡n),37.399727,-5.9838285
21,Ronda de Capuchinos (La Trinidad),37.397678,-5.981503
22,MarÃ­a Auxiliadora (Puerta Osario),37.394493,-5.9835954
23,Ronda de Capuchinos (Avenida Miraflores),37.398808,-5.9818225
24,Ronda de Capuchinos (LeÃ³n XIII),37.39967,-5.9835954
25,MuÃ±oz LeÃ³n (SÃ¡nchez Perrier),37.401398,-5.985486
26,Parlamento de AndalucÃ­a (Macarena),37.403214,-5.9885464
27,Resolana (Barqueta),37.403637,-5.9937391
28,Parlamento de AndalucÃ­a (Macarena),37.403267,-5.988246
29,Torneo (Puerta de San Juan),37.400848,-5.9985538
30,Torneo (BaÃ±os),37.396057,-6.0025907
31,Santiago (Pza J. de La RedenciÃ³n),37.390873,-5.9857998
32,Teniente Borges (Plaza Duque),37.393665,-5.9962611
33,Clara de JesÃºs Montero (Procurador),37.387146,-6.0077701
34,PagÃ©s del Corro (Evangelista),37.382385,-6.0020247
35,GÃ©nova (Plaza de Cuba),37.380287,-5.9984546
36,SebastiÃ¡n Elcano (Virgen de ConsolaciÃ³n),37.378658,-5.9963036
37,SebastiÃ¡n Elcano (Virgen de LujÃ¡n),37.375168,-5.9960542
38,Virgen de LujÃ¡n (SebastiÃ¡n Elcano),37.374672,-5.9955635
39,Glorieta Marineros Voluntarios,37.375751,-5.9911804
40,Avenida MarÃ­a Luisa (La Raza),37.378811,-5.9897346
41,Plaza EncarnaciÃ³n,37.392693,-5.9912114
42,MenÃ©ndez Pelayo (Puerta de La Carne),37.386517,-5.9855533
43,MenÃ©ndez Pelayo (Puerta Carmona),37.389664,-5.9842658
44,Comunidad ExtremeÃ±a,37.41259,-5.9744382
45,Avenida La Barzola (BahÃ­a de CÃ¡diz),37.413162,-5.9763479
46,Av. La Barzola (Pza. A. MartÃ­n Caro),37.409794,-5.9780645
47,Madreselva,37.407017,-5.9795451
48,Doctor JimÃ©nez DÃ­az,37.404835,-5.9805322
49,Avenida La Cruz Roja (Antonio MachÃ­n),37.402874,-5.9813933
50,Avenida La Cruz Roja (ClÃ­nica),37.400646,-5.9825277
51,Chipre (Avenida Alemania),37.34465,-5.9825706
52,San Juan de La Salle (Alc. M. del Valle),37.407631,-5.9716272
53,Avenida La Borbolla (CapitanÃ­a),37.377415,-5.9842443
54,Avenida La Borbolla (Montevideo),37.374294,-5.9854217
55,Avenida La Borbolla (Plaza AmÃ©rica),37.372356,-5.9856176
56,Manuel Siurot (Edificio La Estrella),37.367599,-5.9853172
57,Manuel Siurot (Cardenal Ilundain),37.364216,-5.983418
58,Manuel Siurot (Hospital V.Rocio),37.361286,-5.9818792
59,Manuel Siurot (Carretera Su Eminencia),37.357399,-5.9797702
60,Padre G. Tejero (Est. Benito VillamarÃ­n),37.357231,-5.9828281
61,Reina Mercedes (Gta. Alc. Parias Merry),37.356377,-5.9864116
62,Reina Mercedes (E.S.I. InformÃ¡tica),37.35873,-5.9862828
63,Reina Mercedes (Escuela de Arquitectura),37.361809,-5.9861431
64,Manuel Siurot (Gustavo Gallardo),37.365231,-5.9837508
65,Manuel Siurot (Edificio La Estrella),37.367493,-5.9850545
66,Avenida La Borbolla (Felipe Ii),37.372349,-5.9853921
67,Avenida La Borbolla (Montevideo),37.374199,-5.9852099
68,Avda. La Borbolla (Dr. Pedro de Castro),37.379101,-5.9833002
69,Prado San SebastiÃ¡n (Carlos V,37.380623,-5.9865456
70,Plaza EncarnaciÃ³n,37.392799,-5.9928155
71,Avenida Miraflores (San Juan Bosco),37.398891,-5.9812455
72,Avenida Miraflores (Retiro Obrero),37.401661,-5.978467
73,Av. Miraflores (Sta. MarÃ­a de OrdÃ¡s),37.403645,-5.9765892
74,Av. San Juan de La Salle (Av. Llanes),37.405464,-5.9745026
75,Parsi 6 (Parsi 2,37.376499,-5.9221992
76,Avenida SÃ¡nchez PizjuÃ¡n (Doctor MaraÃ±Ã³n),37.407497,-5.9888763
77,Doctor Leal CastaÃ±os (Huerta del Carmen),37.407276,-5.9841423
78,Sor Francisca Dorotea (Bda. La Barzola),37.407303,-5.9807844
79,Ronda de PÃ­o XII (Madreselva),37.406666,-5.9776998
80,Prado San SebastiÃ¡n (Carlos V,37.380669,-5.9867496
81,Arosa (Avda. Parsi),37.38084,-5.9186587
83,Carretera Carmona (Rafael Alberti),37.402313,-5.9707394
84,Avda. Carlos V (Prado San SebastiÃ¡n),37.380295,-5.9852691
85,Torneo (Estacion Plaza de Armas),37.391979,-6.0034223
86,Pedro Romero (Antonio de Lara),37.400192,-5.9571218
87,Pedro Romero (Frascuelo),37.398434,-5.9599328
88,Avda. Parsi (Las Lumbreras),37.384949,-5.9193778
89,Avenida SoleÃ¡ (Parroquia del Pilar),37.394588,-5.9652004
90,Avenida SoleÃ¡ (El Greco),37.391838,-5.968473
91,Avda. Parsi (Hda. San Antonio),37.379715,-5.9194851
92,GÃ©nova (Plaza de Cuba),37.380402,-5.999104
93,CataluÃ±a (Parroquia San Jeronimo),37.424358,-5.9835577
94,Villegas (Pza. El Salvador),37.389835,-5.9929881
95,MarquÃ©s de Pickman (Mercado),37.381302,-5.9630117
96,MarquÃ©s de Pickman (Mercado),37.38121,-5.9631352
97,Plaza San Francisco,37.387787,-5.9936962
98,Orfebre Cay. Gonzale(L.Ortiz MuÃ±oz),37.358849,-5.9695349
99,Avda. Portugal (Ciudad de Ronda),37.378052,-5.984169
100,Avda. El Greco (Ambulatorio),37.390263,-5.9673586
101,Avenida SoleÃ¡ (El Greco),37.391945,-5.9680114
102,Avenida SoleÃ¡ (Ã‰feso),37.394718,-5.9648252
103,San Esteban (Puerta Carmona),37.389332,-5.9846306
104,Medina y Galnares (Apead. San JerÃ³nimo),37.431599,-5.9803391
105,Auxiliar Kansas City (Macedonia),37.402687,-5.9587312
106,Ã�guilas (Casa Pilatos),37.389885,-5.9870553
107,Carretera Carmona (Avenida Llanes),37.402409,-5.9709783
108,JesÃºs de Las Tres CaÃ­das (Alfalfa),37.390335,-5.9913144
109,Francisco Bruna (Pza. San Francisco),37.389324,-5.994072
110,Ronda de PÃ­o XII (Avenida Pino Montano),37.405918,-5.9759483
111,Sor Francisca Dorotea (Hdad. Trabajo),37.407341,-5.9810362
112,San Juan de Ribera (PoliclÃ­nico),37.405533,-5.9867334
113,Pedro Romero (AntioquÃ­a),37.400063,-5.9567785
114,AntioquÃ­a (Damasco),37.398136,-5.9563923
115,Damasco (TesalÃ³nica),37.396641,-5.9576502
116,JerusalÃ©n (TesalÃ³nica),37.395382,-5.9596
117,Avda. Cruz del Campo (Tordesillas),37.386555,-5.9653158
118,Av. Cruz del Campo (Alej. Collantes),37.38459,-5.9655628
119,Avenida Ciudad JardÃ­n (Juan de Padilla),37.378448,-5.9663162
120,Avenida Ciudad JardÃ­n (Piscinas Sevilla),37.376511,-5.9668422
121,Alcalde Juan FernÃ¡ndez (El Juncal),37.373756,-5.9682474
122,Alcalde Juan FernÃ¡ndez (Claudio GuerÃ­n),37.373417,-5.971602
123,Alcalde Juan FernÃ¡ndez (El Plantinar),37.373352,-5.9730864
124,Ntra. Sra. Mercedes (RamÃ³n Carande),37.372318,-5.977716
125,Felipe Ii (Diego de La Barrera),37.371975,-5.9808216
126,Felipe Ii (Valparaiso),37.37183,-5.9839869
127,Felipe Ii (BogotÃ¡),37.37178,-5.9811101
128,Ntra. Sra. Mercedes (Bueno Monreal),37.372131,-5.9778647
129,Alcalde Juan FernÃ¡ndez (General Merry),37.373199,-5.9730649
130,Alcalde Juan FernÃ¡ndez (El Plantinar),37.372978,-5.9699211
131,Alcalde Juan FernÃ¡ndez (El Juncal),37.373917,-5.9679151
132,Avenida Ciudad JardÃ­n (Piscinas Sevilla),37.376129,-5.9667296
133,Av. Ciudad JardÃ­n (Card. R. de Castro),37.37772,-5.9661126
134,Av. Cruz del Campo (Alej. Collantes),37.384678,-5.9652863
135,Av. Cruz del Campo (Av. de AndalucÃ­a),37.386742,-5.9650788
136,TomÃ¡s Murube (Ambulatorio),37.390106,-5.9679255
137,Luis de Morales (Est. SÃ¡nchez PizjuÃ¡n),37.383774,-5.9728637
138,Pedro Romero (San Ignacio de Loyola),37.398697,-5.959013
139,GarcÃ­a de Vinuesa (Avda. ConstituciÃ³n),37.386681,-5.9944367
140,Avenida Juan XXIII (Parque Amate),37.378639,-5.9524736
141,Los Gavilanes (Consultorio Amate),37.376709,-5.9523768
142,TomÃ¡s Murube (AgustÃ­n Moreto),37.388462,-5.9677205
143,TomÃ¡s Murube (Ambulatorio),37.39019,-5.9677324
144,Francisco BuendÃ­a (Don Gonzalo de Mena),37.377098,-5.9630656
145,Avenida de La Paz (Sierra Morena),37.370457,-5.9706187
146,Avenida de La Paz (Barriada La Oliva),37.368511,-5.967958
147,Ronda La Oliva (Las LetanÃ­as),37.365944,-5.9672499
148,Madre de Cristo,37.363823,-5.9683123
149,Luis Ortiz MuÃ±oz (Escultor SebastiÃ¡n),37.359917,-5.965426
150,Luis Ortiz MuÃ±oz (Orf. Cayet. GonzÃ¡lez),37.357288,-5.9681616
151,Avda. Las LetanÃ­as (Estr. de La MaÃ±ana),37.360897,-5.9632907
152,San JosÃ© de Calasanz (Ruben Dario),37.376144,-6.0136518
153,Manuel Siurot (Carretera Su Eminencia),37.357521,-5.9796414
154,Manuel Siurot (Hospital V.Rocio),37.361073,-5.981739
155,Adriano (Arenal),37.386593,-6.0003161
156,Reina Mercedes (Escuela de Aparejadores),37.361092,-5.9863687
157,Reina Mercedes (E.S.I. InformÃ¡tica),37.358391,-5.9865403
158,Glorieta Alcalde Parias Merry,37.355858,-5.9867764
159,Luis de Morales (Luis Montoto),37.385536,-5.9727349
160,Avda. Kansas City (Tesalonica),37.401127,-5.9607873
161,Avda. Kansas City (Edificio Gran Via),37.40345,-5.9578757
162,Zaragoza (MoratÃ­n),37.389126,-5.9991226
163,Plaza Nueva (Hotel Inglaterra),37.389034,-5.9962606
164,Avda. Kansas City (TesalÃ³nica),37.40052,-5.9621267
165,San JosÃ© de Calasanz (Bda. El Carmen),37.374657,-6.0121956
166,Almirante Apodaca (Ponce de LeÃ³n),37.392982,-5.9879107
167,Avenida de La Paz (Ronda de La Oliva),37.367435,-5.966681
168,Avda. La Paz (Alc. Juan FernÃ¡ndez),37.371761,-5.9719276
169,Francisco BuendÃ­a (Ciudad JardÃ­n),37.377193,-5.9655814
170,Francisco BuendÃ­a (Rda. del Tamarguillo),37.376942,-5.9626336
171,Paulo Orosio (Ruperto ChapÃ­),37.37672,-5.9597716
172,Paulo Orosio (Beatriz de Ahumada),37.376278,-5.9567785
173,AutovÃ­a Madrid (UrbanizaciÃ³n Huarte),37.406563,-5.9537115
174,Avenida Juan XXIII (Parque Amate),37.378674,-5.9523044
175,Esperanza de Triana (Trabajo),37.378941,-6.0033765
176,Alvar NÃºÃ±ez (RubÃ©n Dario),37.377075,-6.0127563
177,Alvar NÃºÃ±ez (Lorenzo Leal),37.378757,-6.0110154
178,Alvar NÃºÃ±ez (LÃ³pez de Gomara),37.379978,-6.0097761
179,Ctra. Pino Montano (Cortijo Las Monjas),37.424793,-5.953753
180,LÃ³pez de Gomara (Instituto BÃ©cquer),37.378059,-6.0072899
181,RepÃºblica Argentina (Virgen de Ã�frica),37.376637,-6.0039639
182,Avda. RepÃºblica Argentina (Calle Arcos),37.378078,-6.0012922
183,RepÃºblica Argentina (Plaza de Cuba),37.37915,-5.9992967
184,Puerta Jerez,37.379757,-5.9916258
185,Prado San SebastiÃ¡n (Carlos V,37.380699,-5.9868889
186,RamÃ³n y Cajal (Facultad Empresariales),37.37772,-5.9768577
187,Av. San Fco. Javier (Espinosa y Carcel),37.378769,-5.9744329
188,Av. San Fco. Javier (Edif. Sevilla 2,37.380379,-5.9739552
189,Eduardo Dato (Estadio SÃ¡nchez PizjuÃ¡n),37.382576,-5.9723153
190,Eduardo Dato (San Juan de Dios),37.381889,-5.968709
191,Eduardo Dato (San Juan de Dios),37.381939,-5.9681401
192,Eduardo Dato (Estadio SÃ¡nchez Pizjuan),37.382607,-5.971745
193,Av. San Fco. Javier (Camilo JosÃ© Cela),37.38036,-5.974143
194,Av. San Fco. Javier (Av. RamÃ³n y Cajal),37.378643,-5.9746957
195,RamÃ³n y Cajal (Facultad Empresariales),37.377949,-5.9770775
196,Palos de La Frontera (Puerta Jerez),37.380978,-5.9934497
197,RepÃºblica Argentina (PagÃ©s del Corro),37.379166,-5.9994845
198,Rep. Argentina (Virgen de Villadiego),37.378281,-6.0011797
199,RepÃºblica Argentina (Virgen de FÃ¡tima),37.376789,-6.0041246
200,LÃ³pez de Gomara (Instituto BÃ©cquer),37.377205,-6.0065174
201,Juan DÃ­az de SolÃ­s,37.377598,-6.0101194
202,Virgen de LujÃ¡n (Virgen del Ã�guila),37.374611,-6.0020194
203,Virgen de LujÃ¡n (Juan RamÃ³n JimÃ©nez),37.374645,-5.9992433
204,Guadalupe (Recaredo),37.39043,-5.9844589
205,Paseo Las delicias (Pab. de Guatemala),37.374283,-5.9910784
206,Paseo Las delicias (Glorieta MÃ©jico),37.369915,-5.9883804
207,Sor Gregoria Santa Teresa,37.365353,-5.9873981
208,Sor Gregoria Santa Teresa,37.364422,-5.987318
209,Paseo Las delicias (Glorieta MÃ©jico),37.37014,-5.988246
210,Paseo Las delicias (Glta. Marineros),37.374115,-5.9906492
211,Virgen de LujÃ¡n (SebastiÃ¡n Elcano),37.374828,-5.9954371
212,TomÃ¡s Murube (Luis Montoto),37.388,-5.9678936
213,Virgen de LujÃ¡n (Juan RamÃ³n JimÃ©nez),37.374763,-5.99967
214,Virgen de LujÃ¡n (Virgen de Ã�frica),37.374683,-6.0021162
215,Ctra. Pino Montano (Finca EncarnaciÃ³n),37.429104,-5.9451699
216,Alcalde Luis UruÃ±uela (Puerta Este),37.403641,-5.9388828
217,Avda. SÃ¡nchez PizjuÃ¡n (Macarena Cinco),37.409668,-5.9872804
218,Trabaj. Inmigrantes (Diego Puerta),37.411037,-5.9809074
219,Los Romeros (Avenida San Lazaro),37.408939,-5.9822946
220,Dr. Jaime Marcos (Dr. Fedriani),37.409767,-5.9841938
221,Avda. SÃ¡nchez PizjuÃ¡n (Las Golondrinas),37.411362,-5.9860868
222,Avenida Emilio Lemos (Centro Comercial),37.407742,-5.9099097
223,Canalejas (Gravina),37.390289,-6.0005417
224,San Vicente de PaÃºl (Ciudad Real),37.382717,-6.0136065
225,Trabaj. Inmigrantes(Doctor Fedriani),37.412315,-5.9823737
226,Hytasa (Plg. Ind. Su Eminencia),37.368282,-5.9560008
227,Rda. Tamarguillo (Centro deportivo),37.424587,-5.9815621
228,Concej. JimÃ©nez Becerril (Gta. Olimpica),37.411713,-5.9897695
229,Avenida Coria (San MartÃ­n de Porres),37.381054,-6.0101061
230,San Jacinto (PeÃ±aflor),37.381866,-6.0078292
231,San Jacinto (PagÃ©s del Corro),37.383266,-6.0057397
232,JosÃ© GalÃ¡n Merino (AlcalÃ¡ del Rio),37.421947,-5.9873772
233,Doctor Fedriani (Doctor Leal CastaÃ±os),37.407818,-5.9851561
234,Amor de Dios (Plaza Europa),37.396835,-5.9935842
235,Feria (Cruz Verde),37.398254,-5.99158
236,Feria (Relator),37.400032,-5.9917545
237,Feria (Resolana),37.402988,-5.9918137
238,San Juan de Ribera (Macarena),37.403549,-5.9872375
239,San Juan de Ribera (PoliclÃ­nico),37.40543,-5.9863148
240,Medina y Galnares (Ambulatorio),37.430363,-5.9807787
241,Medina y Galnares (Carpa),37.427128,-5.9818625
242,Medina y Galnares (CataluÃ±a),37.425049,-5.9825921
243,Doctor Fedriani (Cementerio),37.415131,-5.9835792
244,Doctor Fedriani (Ã�gata),37.411678,-5.984272
245,Doctor Fedriani (Diamante),37.409557,-5.9848771
246,MuÃ±oz LeÃ³n (Puerta de CÃ³rdoba),37.40255,-5.9870658
247,Ponce de LeÃ³n,37.393074,-5.9877095
248,Plaza Ponce de Leon (Juan de Mesa),37.393089,-5.9873853
249,Don Fadrique (Macarena),37.403511,-5.9893484
250,Avda. Parsi (Las Melias),37.37825,-5.9191175
251,Doctor Fedriani (Plaza Isla Canela),37.409428,-5.9845757
252,Doctor Fedriani (Avda. San LÃ¡zaro),37.411148,-5.9839411
253,Trabaj. Inmigrantes (Los Romeros),37.408466,-5.9798026
254,Niculoso Pisano (Ronda de Tejares),37.387398,-6.0130377
255,Ronda de Los Tejares (TurruÃ±uelo),37.385628,-6.0135231
256,Avenida San LÃ¡zaro (Los Romeros),37.409348,-5.9829998
257,Avenida San LÃ¡zaro (Doctor Morote),37.41114,-5.9834237
258,Esparteros (Charolistas),37.42152,-5.9618425
259,Sembradores (Parque Bomberos),37.422493,-5.9662576
260,Agricultores (Camino de Los Toros),37.420975,-5.9680114
261,Camino de Los Toros (Mar AdriÃ¡tico),37.419868,-5.9657154
262,Cortijo Las Casillas (Mar Mediterraneo),37.418598,-5.9635806
263,Avenida Pino Montano (Ronda Norte),37.41674,-5.9666491
264,Avenida Pino Montano (San Diego),37.41457,-5.9686823
265,Avenida Pino Montano (SebastiÃ¡n Llano),37.412094,-5.9708009
266,Avda. Pino Montano (Sta. Justa y Rufina),37.410187,-5.9720993
267,Periodista JosÃ© Couso,37.411911,-5.983952
268,Avenida Pino Montano (Ronda de PÃ­o XII),37.406319,-5.9746633
269,Avda. Pino Montano (San Felipe Neri),37.408791,-5.973022
270,Alcalde Manuel del Valle (San Diego),37.409863,-5.9709835
271,Avenida Pino Montano (Los Carteros),37.41198,-5.9706721
272,Avenida Pino Montano (San Diego),37.413986,-5.9687734
273,Avenida Pino Montano (Parqueflores),37.416668,-5.9664679
274,Cortijo Las Casillas (C. de Los Toros),37.418282,-5.9634089
275,Dr. Leal CastaÃ±os (Avda. San LÃ¡zaro),37.407349,-5.9836969
276,Carretera Carmona (Pedro de Mena),37.40181,-5.9730487
277,Carretera Carmona (Higuera de La Sierra),37.400791,-5.975873
278,Ctra.A-3108 (Centro Insercion Social),37.387207,-5.8525105
279,Arroyo (Pinzones),37.397423,-5.9768777
280,Arroyo (JosÃ© Laguillo),37.393841,-5.9822807
281,Gonzalo Bilbao (Puerta Osario),37.393005,-5.9833646
282,MarÃ­a Auxiliadora (Dr. Relimpio),37.395493,-5.9826136
283,Arroyo (Urquiza),37.394581,-5.981503
284,Arroyo (Pinzones),37.397129,-5.9771419
285,San Luis (Inocentes),37.398453,-5.9881926
286,Carretera Carmona (Higuera de La Sierra),37.400463,-5.9761267
287,Carretera Carmona (Pedro de Mena),37.401646,-5.9733171
288,Carretera Carmona (Ronda de Capuchinos),37.397762,-5.9807415
289,Aux. Autovia Madrid (Hipermercado),37.410076,-5.9399018
290,Garrochistas (Talabarteros),37.424129,-5.9602118
291,Luis Montoto (MarquÃ©s de NerviÃ³n),37.387619,-5.9674644
292,Luis Montoto (Kansas City),37.387451,-5.9717507
293,Kansas City (CÃ©firo),37.388695,-5.9735155
294,Aux. Autovia Madrid (Jardines del EdÃ©n),37.411583,-5.9359217
295,Eduardo Dato (Colegio Porta Coeli),37.383751,-5.9775496
296,Eduardo Dato (San Bernardo),37.384502,-5.9823508
297,MenÃ©ndez Pelayo (Jardines de Murillo),37.384769,-5.9867439
298,Cortijo de Las Casillas,37.422482,-5.9593749
299,Emilia Barral (Plaza Rey Aurelio),37.408791,-5.9194317
300,Carretera Carmona (Ronda de Capuchinos),37.397839,-5.9808784
301,Eduardo Dato (San Bernardo),37.384327,-5.9821415
302,Eduardo Dato (Colegio Porta Coeli),37.383442,-5.9767017
303,Trabaj. Inmigrantes (Mar Caspio),37.408142,-5.9794135
304,Acc. Parque Alcosa (Ciudad de Alfafar),37.413322,-5.9283576
305,Luis Montoto (Luis de Morales),37.387173,-5.971509
306,Ciudad de Liria (Elda),37.412197,-5.9257722
307,Las O.N.G. (Plaza Gomila),37.407444,-5.9259439
308,Ciudad de Paterna (Ambulatorio),37.41264,-5.9278536
309,Luis Montoto (MarquÃ©s de NerviÃ³n),37.387398,-5.9669709
310,Escritor Alfonso Grosso (Carmen Conde),37.410248,-5.9191737
311,Amor (Edificios AtlÃ¡ntico),37.382545,-5.949204
312,Amor (Santa Isabel),37.385311,-5.9438691
313,Amor (Satsumas),37.384033,-5.9458618
314,Carlos Marx (Edificios CantÃ¡brico),37.381386,-5.9521866
315,Federico Mayo Gayarre (La Candelaria),37.38084,-5.9559417
316,Federico Mayo Gayarre (Rda. Tamarguillo),37.381039,-5.9587564
317,Federico Mayo Gayarre (Gibraltar),37.380833,-5.958055
318,Federico Mayo Gayarre (Pedro de Madrid),37.380638,-5.9552417
319,Avenida Emilio Lemos (Vietnam),37.406353,-5.9129834
320,Aguila Perdicera (Centro Salud),37.367146,-5.9537206
321,Ctra. Pino Montano (Cortijo Las Monjas),37.424553,-5.9538388
322,JosÃ© GalÃ¡n Merino (Larache),37.424774,-5.9879885
323,Ã�guila Perdicera (Bda. La MÃºsica),37.365894,-5.9495363
324,Los Claveles (DoÃ±a Francisquita),37.374573,-5.9499869
325,DoÃ±a Francisquita (La Calesera),37.375027,-5.9478841
326,La Calesera (La MonterÃ­a),37.37719,-5.9480453
327,La MonterÃ­a (Mercado),37.376987,-5.9501586
328,Ciudad de Chiva (Ciudad de Liria),37.410236,-5.926137
329,BailÃ©n (Hotel ColÃ³n),37.390892,-5.9982562
330,Luis Montoto (Cefiro),37.387283,-5.9758434
331,Luis Montoto (San Benito),37.387737,-5.980114
332,Monsalves (FernÃ¡n Caballero),37.392262,-5.9985566
333,Amador de Los RÃ­os (JÃºpiter),37.390953,-5.9826884
334,Recaredo (Puerta Osario),37.392456,-5.9841585
335,Alfonso de Orleans (Garcia Morato),37.367741,-6.0042648
336,Luis Montoto (Manuel Halcon),37.387566,-5.9800282
337,Santa Vicenta MarÃ­a (Teniente Borges),37.393585,-5.9974837
338,La Calesera (DoÃ±a Francisquita),37.37471,-5.9472084
339,Avda. Ciudad de Alfafar (GandÃ­a),37.412189,-5.9293232
340,Aux. AutovÃ­a Madrid (Ctra. Aerop. Viejo),37.413551,-5.9331856
341,RamÃ³n y Cajal (MarquÃ©s de NerviÃ³n),37.375954,-5.9706831
342,RamÃ³n y Cajal (San Francisco Javier),37.376968,-5.9742022
343,Av. Emilio Lemos (Period. E. Chinarro),37.403942,-5.9173179
344,RamÃ³n y Cajal (San Francisco Javier),37.376675,-5.9737501
345,RamÃ³n y Cajal (UrbiÃ³n),37.375553,-5.9698033
346,Las Leandras,37.375282,-5.9519506
347,Avenida de Hytasa (Galicia),37.369354,-5.9580445
348,Avenida de Hytasa (HernÃ¡n Ruiz),37.371025,-5.9606299
349,Avenida de Hytasa (AragÃ³n),37.372921,-5.963634
350,RamÃ³n y Cajal (Antiguo Matadero),37.374413,-5.9660802
351,Ã�guila Perdicera (Centro Salud),37.367275,-5.9533882
352,RamÃ³n y Cajal (Antiguo Matadero),37.374325,-5.9661016
353,Canal (AfÃ¡n de Ribera),37.374863,-5.9624863
354,AfÃ¡n de Ribera (Maestro Falla),37.37278,-5.958806
355,AfÃ¡n de Ribera (Galicia),37.370838,-5.9557915
356,AfÃ¡n de Ribera (Juan Talavera Heredia),37.369499,-5.9536886
357,Avenida de Hytasa (Illescas),37.368305,-5.9558129
358,Monsalve (Miguel de Carvajal),37.391949,-5.999651
359,San Luis (Arco Macarena),37.40255,-5.9892759
360,Ntra. Sra. Mercedes (Diez Mandamientos),37.372673,-5.9744701
361,Avda. La Paz (Los Diez Mandamientos),37.372452,-5.9736547
362,Avenida Emilio Lemos (Sendai),37.404945,-5.9161053
363,Medina y Galnares (frt. Centro Salud),37.43045,-5.9804678
364,Avda. Reino Unido (Glta. Letonia),37.346577,-5.9765091
365,Glorieta Forja XXI,37.378059,-5.9413934
366,El Silencio,37.392502,-5.9969244
367,Poeta Manuel BenÃ­tez (Avda. de La Paz),37.368626,-5.9704847
368,Garcia Morato Av. (Ctra. La Esclusa),37.367054,-6.0027518
369,Poeta Manuel BenÃ­tez (Rda. La Oliva),37.366066,-5.9718094
370,Aux. Autovia Madrid (Hipermercado),37.410572,-5.9402347
371,Avenida Emilio Lemos (Indonesia),37.404186,-5.9176931
372,Autovia Madrid (Talbot),37.406712,-5.9539995
373,Orfebre Cayetano GonzÃ¡lez,37.36047,-5.9704576
374,Rda. La Oliva (Orf. Cayet. GonzÃ¡lez),37.362194,-5.9712839
375,Avda. Kansas City (El Greco),37.394012,-5.9696784
376,Avda. Kansas City (Efeso),37.397205,-5.9656796
377,Poeta BenÃ­tez Carrasco (PacÃ­fico),37.365646,-5.9719009
378,Valdelarco (Guadalcanal),37.409096,-5.9768577
379,Avenida de AndalucÃ­a (Tussam),37.38673,-5.950191
380,Av. Emilio Lemos (Period. J. Tribuna),37.405365,-5.9142389
381,Avenida de AndalucÃ­a (Los PÃ¡jaros),37.38731,-5.9550724
382,Puebla del Rio (Las Navas),37.374939,-5.9423213
383,Puebla del Rio,37.376057,-5.9413986
384,Avenida de AndalucÃ­a (Satsumas),37.386547,-5.9465995
385,San JosÃ© de Palmete (Centro Transportes),37.381214,-5.9384856
386,Baena,37.376926,-5.940063
387,JosÃ© Sebast. BandarÃ¡n (Luis Ortiz MuÃ±oz),37.360683,-5.966692
388,Avenida de AndalucÃ­a (Tussam),37.386875,-5.9476695
389,Centro Penitenciario,37.388489,-5.8476877
390,Avda. AndalucÃ­a (Resid. Sta. Isabel),37.386333,-5.9425979
391,Dra. Navarro RodrÃ­guez,37.400379,-5.9210086
392,CoruÃ±a (Avda. Coria),37.382107,-6.0120935
393,Ctra. de Brenes (C/ San Cayetano),37.425251,-5.9281969
394,Evangelista (Condes de Bustillo),37.379707,-6.0066972
395,Ctra. El PÃ­tamo,37.350723,-5.9445691
396,LÃ³pez de Gomara (San MartÃ­n de Porres),37.379875,-6.0087032
397,Hytasa (Plaza Alegre),37.372776,-5.9635377
398,Hytasa  (Salvador TÃ¡vora),37.370697,-5.96033
399,Periodista Eduardo C,37.402721,-5.9175005
400,Taiwan (Hipermercado),37.407646,-5.9122648
401,Emilia Barral (Avda. Seneca),37.411102,-5.9182835
402,Emilia Barral  (Ontur),37.40926,-5.9193029
403,Carabela Santa MarÃ­a,37.402908,-5.9536562
404,Juan Ponce de LeÃ³n,37.400291,-5.949676
405,Rodrigo de Escobedo,37.399544,-5.947691
406,Ã“pera Carmen,37.400837,-5.9472189
407,Fidelio (Carabela La NiÃ±a),37.405464,-5.9498153
408,Aux. A-92 (Virgen de Las Aguas),37.38459,-5.9124899
409,Avda. AndalucÃ­a (Resid. Sta. Isabel),37.386612,-5.942595
410,Avda. Seneca (Rodriguez Castillejo),37.411015,-5.9171033
411,Auxiliar Kansas City (El Greco),37.393677,-5.9708762
412,Avenida de La Plata,37.372375,-5.9454274
413,Ronda Padre PÃ­o,37.37141,-5.9420371
414,SalobreÃ±a,37.373985,-5.9354386
415,Ronda Doctora Este,37.371727,-5.9380779
416,Afecto (Franqueza),37.372681,-5.9327354
417,Afecto (ComprensiÃ³n),37.370754,-5.9318771
418,Indulgencia,37.37072,-5.9299245
419,Honestidad (Humildad),37.375195,-5.9303961
420,Chucena (La Negrilla),37.380959,-5.9396124
421,Chucena (Posadas),37.378838,-5.9415007
422,Ronda Doctora Oeste (Mairena del Alcor),37.371563,-5.9421978
423,Avenida de La Plata,37.372528,-5.9453201
424,Guadalbullon (Pedro Salvador),37.353939,-5.9779143
425,Guadalbullon (Instituto HeliÃ³polis),37.355755,-5.9788585
426,Honestidad (ComprensiÃ³n),37.371658,-5.9284654
427,Taiwan (Thailandia),37.40757,-5.9125543
428,Ronda Doctora Oeste (Colegio Padre PÃ­o),37.373032,-5.9404922
429,TorbizcÃ³n (Polideportivo La Ranilla),37.376762,-5.9341784
430,Glorieta Plus Ultra,37.356991,-5.9803176
431,Honestidad (Solidaridad),37.373703,-5.9293237
432,Guadalbullon (Instituto HeliÃ³polis),37.355644,-5.9789977
433,Alc. Luis UruÃ±uela (Palacio Congresos),37.405422,-5.9320593
435,AfÃ¡n (Residencia Tercera Edad),37.376293,-5.9328227
436,Guadalbullon (Pedro Salvador),37.353836,-5.9780216
437,GarcÃ­a Morato (BarberÃ¡n y Collar),37.368366,-6.0113668
438,GarcÃ­a Morato (Carlos Haya),37.367714,-6.0075793
439,Ali Al-Gomari (Barriada Pineda),37.352077,-5.9761548
440,Hytasa  (Herramientas),37.369339,-5.9582
441,Alcalde Luis UruÃ±uela (Parque Alcosa),37.404503,-5.9292269
442,Gta. Oceanografica  (Parque Emp. Torneo),37.425816,-5.9733763
444,Avda. Mujer Trabajadora (Casa Cuna),37.410149,-5.9686661
445,Avda. Mujer Trabajadora (Ajimez),37.411201,-5.9673252
446,Dra. Navarro Rodriguez,37.400311,-5.9211483
447,Flor de Gitanilla,37.398067,-5.9202147
448,Avda. Mujer Trabajadora (Casa Cuna),37.410194,-5.9690628
449,Avda. Andalucia (Los Pajaritos),37.387199,-5.95783
450,Luis Montoto (Luis de Morales),37.387138,-5.9719062
451,Carlos Marx (Parque Amate),37.381069,-5.9520364
452,Avenida Utrera Molina (Los Arcos),37.387856,-5.9586129
453,Montes Sierra (Rafael Beca Mateos),37.391808,-5.9558129
454,Montes Sierra (SE-30),37.397625,-5.9474764
455,Alcalde Luis UruÃ±uela (Las GÃ³ndolas),37.401257,-5.943378
456,Alcalde Luis UruÃ±uela (Las GÃ³ndolas),37.40163,-5.9435282
457,Alcalde Luis UruÃ±uela (Los Azores),37.402473,-5.9419084
458,Montes Sierra (SE-30),37.397957,-5.9473262
459,Montes Sierra (Rafael Beca Mateos),37.392262,-5.9553542
460,Avenida Utrera Molina (Los Arcos),37.38876,-5.9594016
461,MarÃ­a Auxiliadora (Puerta Osario),37.395256,-5.9832115
462,Kansas City (Huerta Santa Teresa),37.389084,-5.9736629
463,Avenida La Revoltosa,37.378742,-5.9465861
464,Av. La AeronÃ¡utica (Andal. Residencial),37.388828,-5.9205685
465,AndalucÃ­a Residencial,37.387123,-5.9230685
466,La Calesera,37.377491,-5.9481845
467,Av. Parque Amate (Rosaleda),37.384029,-5.9507165
468,Feria (BÃ©cquer),37.402637,-5.9917545
469,Avda. Emilio Lemos (San Ildefonso),37.403294,-5.9206114
470,MarÃ­a Auxiliadora (Puerta Osario),37.395042,-5.9830961
471,Avenida de Las Ciencias (JapÃ³n),37.401878,-5.9267697
472,Avda. Las Ciencias (Rep. de China),37.403275,-5.9277997
473,Alcalde Luis UruÃ±uela (Parque Alcosa),37.404835,-5.929184
474,Alcalde Luis UruÃ±uela (Pal. Congresos),37.405556,-5.933135
475,Alcalde Luis UruÃ±uela (Resid. Al Alba),37.403961,-5.9389634
476,Aux. A-92 (Pas.Peatonal Torreblanca),37.382092,-5.905591
477,Paseo de Europa (Bolonia),37.347973,-5.9803901
478,Alemania  Avda. (Paseo de Europa),37.345669,-5.9794416
479,MarÃ­a Auxiliadora (Jardines del Valle),37.395546,-5.9828053
480,JosÃ© Laguillo (Puerta Osario),37.393898,-5.9829354
481,Paseo Colon (Torre del Oro),37.381519,-5.9954104
482,AutovÃ­a de MÃ¡laga (La Negrilla),37.385777,-5.9305787
483,AutovÃ­a de MÃ¡laga (La Negrilla),37.386272,-5.9324026
484,AutovÃ­a de MÃ¡laga (C. de Automovilismo),37.385639,-5.9262333
485,AutovÃ­a de MÃ¡laga (C. de Automovilismo),37.386108,-5.9272847
486,Aux. AutovÃ­a MÃ¡laga (Plgo. Ind. El Pino),37.385605,-5.9210191
487,Glorieta Torreblanca,37.38588,-5.9147105
488,Estaca de Vares (Creus),37.383968,-5.9164381
489,Aux. Autovia MÃ¡laga (AlanÃ­s),37.385258,-5.9134874
490,Aux. Autovia MÃ¡laga (Torrebermeja),37.383663,-5.9087563
491,Aux. Autovia MÃ¡laga (Torrecilla),37.382511,-5.9053874
492,Av. Emilio Lemos (Av. de Las Ciencias),37.401524,-5.9250908
493,Plaza Las Acacias (Iglesia San Antonio),37.383354,-5.8997974
494,Aux. Autovia MÃ¡laga (Drago),37.381226,-5.9017072
495,Prado de San SebastiÃ¡n,37.38023,-5.9850411
496,Torrelaguna (Torremejia),37.38501,-5.9025869
497,Avenida de Las Ciencias (Ciudad Blanca),37.403038,-5.9280896
498,Torrelaguna (Torrellana),37.385113,-5.9056234
499,Pero Mingo (Canal Bj. Guadalquivir),37.385513,-5.9092712
500,Pero Mingo (Isla Mayor),37.385658,-5.9132409
501,Avenida del Cid (Facultad de derecho),37.380081,-5.9886751
502,Ulpiano Blanco (Auxiliar N-IV),37.413731,-5.9330034
503,Avda. Jerez (Rotonda Bda. Elcano),37.350716,-5.9775496
504,Av. Reino Unido (Glta. Av. Jerez),37.346569,-5.9766483
505,MarÃ­a Galiana (Hospital Fremap),37.343361,-5.9733329
506,Avda. Jerez (Uralita),37.334202,-5.9696317
507,Avda. Jerez (Italica Isabelina),37.331802,-5.9687519
508,Avda. Bellavista (Eduardo Miura),37.326786,-5.9694386
509,Torneo (EstaciÃ³n Plaza de Armas),37.391609,-6.0034318
510,AmÃ©rico Vespucio (Helipuerto),37.401417,-6.0092292
511,Avda. Bellavista (Venta Antequera),37.327557,-5.9688697
512,Avda. Bellavista (Asencio y Toledo),37.324158,-5.9687839
513,Avda. Bellavista (Colegio Lora Tamayo),37.321121,-5.9688268
514,Avda. Bellavista (Nueva Bellavista),37.315807,-5.9694061
515,Avda. Bellavista (Nueva Bellavista),37.315975,-5.9689555
516,Avenida Bellavista (Miguel Ã�ngel),37.321072,-5.9684944
517,Avda. Jerez (Uralita),37.333637,-5.9690628
518,AstronomÃ­a (ZoologÃ­a),37.427059,-5.9774313
519,AmÃ©rico Vespucio (Helipuerto),37.401333,-6.0091887
520,MarÃ­a Galiana (Hospital Militar),37.344719,-5.9736977
521,Av. Jerez (Rotonda Pineda),37.351345,-5.9767022
522,Gran Plaza,37.381878,-5.965426
523,Las O.N.G. (Plaza Bib-Rambla),37.406879,-5.9242916
524,Ciudad de Chiva (Plaza Ã�rbol del Rey),37.408447,-5.9211264
525,Ciudad de Chiva (MaraÃ±Ã³n LavÃ­n),37.409294,-5.9234333
526,Gran Plaza,37.38129,-5.9652219
527,Eduardo Dato (Gran Plaza),37.381836,-5.9662628
528,Avda. Jerez (Jardines de HÃ©rcules),37.331814,-5.9684191
529,Avenida Bellavista (Hospital de Valme),37.318996,-5.9684944
530,Avda. Carlos V (Prado San SebastiÃ¡n),37.380123,-5.985065
531,Luis Montoto (Eduardo Rivas),37.387119,-5.9763236
532,Paseo de ColÃ³n (Plaza de Toros),37.385471,-5.9991708
533,Auxiliar Kansas City (Pol. San Pablo),37.395359,-5.9686127
534,Avda. Bellavista (Edif. Vistabella),37.328716,-5.9687195
535,Avenida Bellavista (Hospital de Valme),37.31881,-5.9690738
536,Paseo de Las delicias (Almirante Lobo),37.381763,-5.9953861
537,PolÃ­gono Store,37.404732,-5.9634409
538,Traviesa (Tren Changai),37.420345,-5.9856496
539,JosÃ© GalÃ¡n Merino (La Bachillera),37.415054,-5.9878011
540,Avda. San JerÃ³nimo (La Bachillera),37.414986,-5.9874792
541,AstronomÃ­a (ZoologÃ­a),37.427254,-5.9771094
542,TorremegÃ­a (Centro Salud),37.383808,-5.9037137
543,BiologÃ­a (El HiguerÃ³n),37.430618,-5.9764013
544,M. Romero MartÃ­nez (Tanatorio),37.431355,-5.9789977
545,CataluÃ±a (Valencia),37.424503,-5.9833646
546,JosÃ© GalÃ¡n Merino (Larache),37.424816,-5.9884501
547,Carretera Su Eminencia (Avenida La Paz),37.361324,-5.9585595
548,Carretera Su Eminencia (Avenida La Paz),37.361706,-5.9587955
549,Gran Plaza,37.381897,-5.9663377
550,Avenida Carlos V (Prado San SebastiÃ¡n),37.38018,-5.985301
551,AlcalÃ¡ del RÃ­o (Marruecos),37.421734,-5.985961
552,Traviesa (Avd. San JerÃ³nimo),37.418514,-5.9856391
553,San Luis (Plaza Pumarejo),37.400745,-5.9887934
554,Paseo Colon (Jardines Cristina),37.381599,-5.9952631
555,Plaza de La Magdalena,37.39114,-5.9969072
556,Marques de Paradas,37.388966,-6.0007453
557,JimÃ©nez de Quesada (Puerta Triana),37.390873,-6.0105515
558,Palos de La Frontera (Puerta Jerez),37.380867,-5.9929562
559,San Pablo (Plaza Magdalena),37.390644,-5.9971404
560,Gta. OceanogrÃ¡fica (Parque Emp. Torneo),37.425961,-5.9731722
561,Ali Al-Gomari (Barriada Pineda),37.352009,-5.9758434
562,Alameda de HÃ©rcules (Trajano),37.396767,-5.9944396
563,Plaza del Duque,37.392918,-5.9957132
564,Ulpiano Blanco (Bda. Aerop. Viejo),37.418861,-5.9326816
565,Avda. Carlos V (Prado San Sebastian),37.380341,-5.9854488
566,Manuel Siurot (Rafael Salgado),37.359177,-5.9806314
567,Ã‰feso (Avenida SoleÃ¡),37.394863,-5.9638381
568,Ada (Avenida Montes Sierra),37.391201,-5.9597559
569,Ulpiano Blanco (Barrio Bajo),37.416355,-5.9341192
570,Ada (Avenida Montes Sierra),37.39164,-5.9597826
571,La Monteria (Mercado),37.376865,-5.9499335
572,Gran Plaza,37.381165,-5.9661555
573,Gran Plaza,37.381668,-5.9652543
574,Manuel Siurot (Francisco Murillo),37.359478,-5.9808407
575,Doctor Fedriani (Doctor MaraÃ±Ã³n),37.408005,-5.985446
576,Plaza Ponce de LÃ©on,37.393215,-5.9875731
577,Plaza Ponce de LeÃ³n,37.393391,-5.987597
578,JosÃ© Bermejo (Fray SerafÃ­n Madrid),37.412361,-5.9791265
579,Fray SerafÃ­n Madrid,37.41069,-5.9787297
580,TesalÃ³nica (Gitanillo de Triana),37.396778,-5.9603028
581,La Calesera (Avda. de La MonterÃ­a),37.37645,-5.9483671
582,Cortijo de Las Casillas (Esparteros),37.420292,-5.9610057
583,DoÃ±a Francisquita (Avda. La Calesera),37.375103,-5.9480987
584,San Diego (Avda. Mujer Trabajadora),37.414593,-5.96666
585,San Diego (Avda. Pino Montano),37.414883,-5.9665632
586,DoÃ±a Francisquita (La Rosaleda),37.37455,-5.9497509
587,Rda. Tamarguillo (C. dep. S. JerÃ³nimo),37.42445,-5.98138
588,TermodinÃ¡mica (Glorieta Miranda),37.429718,-5.9708982
589,M. Romero Martinez (Tanatorio),37.431225,-5.9789124
590,JerusalÃ©n (Junta Municipal de Distrito),37.394043,-5.961381
591,MenÃ©ndez Pelayo (DiputaciÃ³n),37.384487,-5.9866691
592,Doctor LaffÃ³n Soto (TesalÃ³nica),37.397182,-5.9619231
593,Las Leandras (Los Gavilanes),37.375408,-5.951736
594,Cayetano GonzÃ¡lez (SebastiÃ¡n BandarÃ¡n),37.360104,-5.9698782
595,Rda. de La Oliva (Orf. Cayet. Gonzalez),37.362473,-5.9701252
596,Rda. Tamarguillo (Hipermercado),37.416836,-5.9745884
597,Biologia (frente El Higueron),37.43034,-5.9771099
598,Av. AndalucÃ­a (Rda. del Tamarguillo),37.387455,-5.957787
599,San Juan de La Cruz (Avenida Juan XXIII),37.379887,-5.9548821
600,San Juan de La Cruz (Plaza Las Moradas),37.378395,-5.957634
601,San Juan de La Cruz (Ruperto ChapÃ­),37.377182,-5.9598308
602,Canal (Parroco Antonio Gomez Villalobos),37.374027,-5.9633121
603,Secoya (Palacio de Congresos),37.406803,-5.9349132
604,Secoya (Parque Alcosa),37.409061,-5.9336576
605,Ciudad de Chiva (Ciudad de GandÃ­a),37.411575,-5.9302568
606,Paseo Colon (Teatro Maestranza),37.383568,-5.9970117
607,San JosÃ© de Palmete (Correos),37.37888,-5.9353209
608,JosÃ© Laguillo (Puerta Osario),37.393867,-5.9835162
609,Luis Ortiz MuÃ±oz (Arquitecto Galnares),37.358143,-5.966445
610,MÃ©dicos Sin Fronteras (Dra. Navarro R.),37.400745,-5.9227252
611,CÃ­es (Fuerteventura),37.38015,-5.9168992
612,Almirante Topete (Ntra.Sra.Mercedes),37.371693,-5.9763265
613,Universidad Pablo Olavide (Biblioteca),37.356873,-5.9419727
614,JosÃ© Sebas. BandarÃ¡n (Cayetano GonzÃ¡lez),37.359695,-5.968226
615,Navio Argos,37.381897,-5.9587312
616,Avenida de AndalucÃ­a (Tussam),37.386826,-5.9518538
617,Avenida Alemania (Suecia),37.345402,-5.9801779
618,Avda. Dinamarca (Sadus),37.349144,-5.9867978
619,Ronda de Triana (Manuel Arellano),37.385227,-6.0112972
620,Flor de Gitanilla (Flor de Retama),37.398151,-5.9197483
621,Periodista Eduardo C,37.402771,-5.9173717
622,Galaxia,37.383629,-5.9567275
623,Ctra.Mairena (Pol.Indust.Torreblanca),37.38303,-5.8950663
624,Blas Infante (RubÃ©n DarÃ­o),37.374889,-6.0077806
625,Alfredo Kraus,37.373199,-6.0084109
626,Blas Infante (Alfredo Kraus),37.374557,-6.0083761
627,Blas Infante (Santa FÃ©),37.375504,-6.0065145
628,Parsi 6 (Parsi2),37.376595,-5.9223928
629,Blas Infante (Jefatura de PolicÃ­a),37.375587,-6.006402
630,Plaza Magdalena,37.391193,-5.9971218
631,Juan Bautista MuÃ±oz (Leonardo Da Vinci),37.412621,-6.0046024
632,San Pablo (Zaragoza),37.389538,-5.9992137
633,Carabela La NiÃ±a (Conde de Osborne),37.404171,-5.9515963
634,Avda. Villas de Cuba (Elisa Ruiz Romero),37.401714,-5.9564242
635,TesalÃ³nica (Plaza Curro Cuchares),37.398777,-5.9616923
636,Auxiliar Kansas City (Efeso),37.397587,-5.9658928
637,MÃ©dicos Sin Fronteras (Mercado Sv. Este),37.402245,-5.9198713
638,Alvar NÃºÃ±ez Cab. Vaca (Fray M. de Niza),37.39933,-5.9527283
639,Ctra.Mairena (Pol.Indust.Torreblanca),37.38245,-5.8954096
640,Fidelio (Ã“pera Carmen),37.403862,-5.9485922
641,Montes Sierra (Avenida La Prensa),37.390827,-5.9577279
642,Montes Sierra (Santa Clara de Cuba),37.394001,-5.9518862
643,Montes Sierra (Santa Clara de Cuba),37.394234,-5.9517679
644,Montes Sierra (TesalÃ³nica),37.391102,-5.9576397
645,Estrella Canopus(Estrella Haris),37.42815,-5.9683123
646,Estrella Haris (Agricultores),37.426556,-5.9654903
647,Ulpiano Blanco (Aerop. Viejo),37.419048,-5.9335828
648,Garrochistas (Salineros),37.425747,-5.9633446
649,Alvar NÃºÃ±ez Cabeza de Vaca (AntioquÃ­a),37.397842,-5.9553275
650,Aeropuerto de Sevilla (Llegadas),37.423615,-5.9002805
651,Padre SebastiÃ¡n BandarÃ¡n (Centro CÃ­vico),37.361256,-5.9665523
652,JosÃ© Sebas. BandarÃ¡n (Cayetano GonzÃ¡lez),37.360123,-5.9680758
653,Estrella deneb (Estrella Vega),37.430595,-5.9671965
654,MarquÃ©s Luca de Tena (Hospital V.Rocio),37.360573,-5.9805427
655,Ciudad de Chiva (Ciudad de Alfafar),37.411663,-5.9300742
656,MarÃ­a Auxiliadora (Laborat. Municipal),37.395203,-5.9828067
657,Secoya (Parque Alcosa),37.409168,-5.9338188
658,Secoya (Palacio de Congresos),37.406822,-5.9351382
659,Real de La Jara (Ambulatorio Plg. Norte),37.410698,-5.9742985
660,Paseo de delicias (PabellÃ³n de Uruguay),37.377323,-5.9926558
661,Puerto del Escudo (Puerto de Zegri),37.375977,-5.9550724
662,Candelilla (Candelario),37.381821,-5.9568858
663,Zorzal (TÃ³rtola),37.386127,-5.9544611
664,Candelilla (Celestino Lopez),37.381973,-5.9570789
665,Rda. Tamarguillo (Alejandro Collantes),37.384319,-5.9597344
666,Polonia (Av.Finlandia),37.344334,-5.9762516
667,Alcalde Luis UruÃ±uela (Jardines EdÃ©n),37.40435,-5.936018
668,Alcalde Luis UruÃ±uela (Jardines EdÃ©n),37.404537,-5.9366403
669,Ctra. de Brenes (San Cayetano),37.425457,-5.9285402
670,Carretera Carmona (Parque AtlÃ¡ntico),37.403156,-5.9658728
671,Juan Bautista MuÃ±oz (Estadio Olimpico),37.412712,-6.0047607
672,JerÃ³nimo de CÃ³rdoba (Supermercado),37.393112,-5.9866695
673,Ctra. Valdezorras (Centro Miraflores),37.416801,-5.9556308
674,Ctra. Valdezorras (Aerop. Viejo),37.42532,-5.9400415
675,Ulpiano Blanco (Bda. Aerop. Viejo),37.420788,-5.935648
676,Vereda Poco Aceite (Venta Vargas),37.429222,-5.9304285
677,HalcÃ³n (Mofeta),37.430824,-5.9264159
678,Vereda Poco Aceite (Venta Vargas),37.429462,-5.930686
679,Barriada El Gordillo,37.451149,-5.9373379
680,Ctra. El Gordillo (Cortijo CordobÃ©s),37.436295,-5.9389043
681,Ctra. Valdezorras (Aerop. Viejo),37.425354,-5.940814
682,Centro Miraflores,37.420292,-5.955019
683,Ctra. Valdezorras (Centro Miraflores),37.416946,-5.9555769
684,Doctor Fedriani (Cementerio),37.4146,-5.9831605
685,Aux. Ronda Norte (Av. Pino Montano),37.417377,-5.9668207
687,Padre G. Tejero (Est. Benito VillamarÃ­n),37.35722,-5.9823561
688,Torneo (Estacion Plaza de Armas),37.391151,-6.0028481
689,Rda. Tamarguillo (Alejandro Collantes),37.384369,-5.9598579
690,Rda. Tamarguillo (Federico Mayo Gayarre),37.381496,-5.9600506
691,Rda. Tamarguillo (MarquÃ©s de Pickman),37.381325,-5.9603081
692,Rda. Tamarguillo (Plaza Ruperto ChapÃ­),37.377502,-5.9605656
693,Rda. Tamarguillo (Francisco BuendÃ­a),37.376354,-5.9616923
694,Ronda del Tamarguillo (Cerro del Ã�guila),37.37397,-5.9637952
695,Ronda del Tamarguillo (RamÃ³n y Cajal),37.372925,-5.9651575
696,Ronda del Tamarguillo (Hytasa),37.370754,-5.9674859
697,Rda. Tamarguillo (Av. de La Paz),37.370361,-5.9682207
698,Ctra. Carmona (Alc. Manuel del Valle),37.40313,-5.9682169
699,Rda. Tamarguillo (Arq. JosÃ© Granados),37.404186,-5.9686766
700,Av. Asoc. de Vecinos (Parque AtlÃ¡ntico),37.405045,-5.9645209
701,Av. Manuel del Valle (C.E. Pino Montano),37.406044,-5.9690309
702,Av. Asoc. de Vecinos (C. Alfonso Grosso),37.407009,-5.9651389
703,Av. Manuel del Valle (Av. Mujer Trabaj.),37.408485,-5.9702592
704,JerusalÃ©n (Junta Municipal de Distrito),37.393929,-5.9611588
705,JerusalÃ©n (TesalÃ³nica),37.395237,-5.9595141
706,Avda. AsociaciÃ³n de Vecinos (Ojiva),37.408459,-5.9655976
707,Arroyo (GuanahanÃ­),37.398121,-5.9744864
708,Arroyo (Vicente AlanÃ­s),37.398315,-5.9744086
709,Tharsis (AndrÃ©s Segovia),37.399223,-5.971241
710,Tharsis (AndrÃ©s Segovia),37.399712,-5.9705863
711,Inca Garcilaso (Francisco de Montesinos),37.395248,-6.0098538
712,Alcalde Manuel del Valle (Ctra. Carmona),37.401604,-5.969449
713,Alcalde Manuel del Valle (HespÃ©rides),37.399399,-5.9690952
714,Alc. M.  del Valle (Baltasar de AlcÃ¡zar),37.399757,-5.9691057
715,Alcalde Manuel del Valle (Kansas City),37.397343,-5.966413
716,Avda. Las Ciencias (Edif. Entreflores),37.395817,-5.9223819
717,Ã‰feso (Palacio de deportes),37.395767,-5.964632
718,AmÃ©rico Vespucio (Monasterio),37.397411,-6.0102458
719,TesalÃ³nica (Gitanillo de Triana),37.396866,-5.9600186
720,Plaza P. JerÃ³nimo de CÃ³rdoba,37.39304,-5.9865723
721,Las Ciencias Av. (Doctor Madrazo),37.398952,-5.9246993
722,JosÃ© Laguillo (EstaciÃ³n Santa.Justa),37.390976,-5.9765196
723,Aux. AutovÃ­a MÃ¡laga (Canal Bajo Guadal.),37.38443,-5.910902
724,Ada (JerusalÃ©n),37.39283,-5.9612794
725,Ada (Tarso),37.393299,-5.9622879
726,Avda. Kansas City (EstaciÃ³n Santa Justa),37.39061,-5.9738803
727,Auxiliar Kansas City (Est. Santa Justa),37.390678,-5.974556
728,Avda. AndalucÃ­a (Rda. Tamarguillo),37.387173,-5.9579372
729,AmÃ©rico Vespucio (Louis Braille),37.405048,-6.0081377
730,AmÃ©rico Vespucio (PolicÃ­a Local),37.407627,-6.0075207
731,Avda. Turia (Ciudad de Chiva),37.410084,-5.9269199
732,Ctra. Valdezorras (Rda. Super Norte),37.423206,-5.9462643
733,Ctra. Valdezorras (Rda. Super Norte),37.423241,-5.9467793
734,Avda. Las Ciencias (Edif. Estrella Este),37.398136,-5.9246244
735,Avenida de Las Ciencias (Ulises),37.395714,-5.9228969
736,Avda. Las Ciencias (Edif. Las Camelias),37.39146,-5.9203758
737,AmÃ©rico Vespucio (F. de ComunicaciÃ³n),37.410301,-6.0067911
738,Juan Bautista MuÃ±oz (Esc. de Ingenieros),37.411472,-5.9994097
739,AndalucÃ­a Residencial (Edificio MÃ¡laga),37.386909,-5.9190774
740,Ulpiano Blanco (Bda. Aeropuerto Viejo),37.420746,-5.9357715
741,Puente La Barqueta,37.405128,-5.9988194
742,MarÃ­a Galiana (Santa MarÃ­a de La Cabeza),37.346817,-5.9743524
743,Avda. Las Ciencias (Edif. AlbÃ©niz),37.393364,-5.9212337
744,HespÃ©rides (Alcalde Manuel del Valle),37.399364,-5.9683013
745,Torneo (San Laureano),37.393475,-6.0039639
746,Cristo de La ExpiraciÃ³n (Plaza de Armas),37.390633,-6.0042348
747,Torneo (San Laureano),37.394005,-6.0035081
748,Torneo (Plaza de Armas),37.391468,-6.0029874
749,Paseo CristÃ³bal ColÃ³n (Torre del Oro),37.381702,-5.9955416
750,JosÃ© Laguillo (Esperanza Trinidad),37.39299,-5.9809051
751,JosÃ© Laguillo (Juan Antonio Cavestany),37.392189,-5.9792418
752,Luis de Morales (Luis Montoto),37.386684,-5.9723301
753,Dr. Fleming (Est. Benito VillamarÃ­n),37.356438,-5.9836435
754,JosÃ© Laguillo (EstaciÃ³n de Santa Justa),37.390884,-5.9765787
755,JosÃ© Laguillo (EstaciÃ³n de Santa Justa),37.390743,-5.9766831
756,Luis Ortiz MuÃ±oz (Ctra. Su Eminencia),37.356529,-5.9696207
757,Luis de Morales (Est. SÃ¡nchez PizjuÃ¡n),37.383747,-5.9730997
758,Apeadero San Bernardo,37.378273,-5.9790945
759,Enramadilla (Apeadero San Bernardo),37.378597,-5.978569
760,Victoria Dominguez (C. dep. Tiro LÃ­nea),37.357018,-5.9721098
761,Plaza San RomÃ¡n (PeÃ±uelas),37.394905,-5.9868407
762,Agricultores (Sembradores),37.422073,-5.9668636
763,Avenida de AndalucÃ­a (Los Arcos),37.387581,-5.960237
764,Glorieta Presos de Los Merinales,37.329517,-5.9678078
765,Prado San SebastiÃ¡n (Carlos V,37.380398,-5.9856606
766,Avda. JimÃ©nez Becerril (F. OdontologÃ­a),37.407204,-5.9928098
767,Navarra (Corvina),37.425762,-5.9855318
768,Ronda de Triana (San Vicente de PaÃºl),37.382977,-6.010664
769,Ronda de Triana (San Vicente de PaÃºl),37.382713,-6.010519
770,Ronda de Triana (Manuel Arellano),37.385368,-6.0112381
771,Ronda Triana (C.D. Ã�lvarez GordÃ³n),37.388428,-6.010664
772,Ronda Triana (C.D. Ã�lvarez GordÃ³n),37.387653,-6.0108304
773,Cristo de La ExpiraciÃ³n (Patrocinio),37.389698,-6.0096502
774,Corvina (Instituto San JerÃ³nimo),37.427212,-5.9841046
775,Paseo CristÃ³bal ColÃ³n (Dos de Mayo),37.383671,-5.9971938
776,Corvina (Colegio Federico GarcÃ­a Lorca),37.42902,-5.9825974
777,Paseo CristÃ³bal ColÃ³n (Plaza de Toros),37.385021,-5.9989991
778,Concejal JimÃ©nez Becerril (JosÃ© DÃ­az),37.410126,-5.9905214
779,Arjona (Puente de Triana),37.387608,-6.0018826
780,Torneo (San Lorenzo),37.397987,-6.0006566
781,Torneo (San Lorenzo),37.398067,-6.001153
782,Glorieta San LÃ¡zaro (Romanticismo),37.413086,-5.9860897
783,Ulpiano Blanco (Ctra. Miraflores),37.424931,-5.9403634
784,JosÃ© Laguillo (Puerta Osario),37.393799,-5.9829569
785,MarÃ­a Auxiliadora (Puerta Osario),37.394154,-5.983861
786,Ronda de Capuchinos (La Trinidad),37.397865,-5.9815354
787,JosÃ© DÃ­az (Macarena Tres Huertas),37.408276,-5.9886003
788,Avenida La Barzola (Constantina),37.408978,-5.9780593
789,Avenida La Barzola (Camino Cantalobos),37.413235,-5.9761009
790,Corral de Los Olmos (Corral del Moro),37.418247,-5.9711871
791,Corral de Los Olmos (P. Sierra Nevada),37.418137,-5.9713912
792,Mar de AlborÃ¡n (Corral de Los Olmos),37.418404,-5.9693527
793,Mar de AlborÃ¡n (Corral de La Caridad),37.418858,-5.9685535
794,Ctra. A-3108 (Centro Insercion Social),37.387581,-5.8525639
795,Escritor A. Grosso (Ildefonso MaraÃ±on),37.411175,-5.9216952
796,Concejal JimÃ©nez Becerril (JosÃ© DÃ­az),37.40873,-5.9918995
797,Dr. Fleming (Est. Benito VillamarÃ­n),37.356369,-5.9834075
798,San Luis (Pza. San Marcos),37.396458,-5.9879351
799,Avda. Emilio Lemos (Kabul),37.402401,-5.9232831
800,Avenida de Las Ciencias (Ciudad Verde),37.401615,-5.9271026
801,Luis de Morales (Est. SÃ¡nchez PizjuÃ¡n),37.383926,-5.9727859
802,Avenida Holanda (ParanÃ¡),37.354492,-5.9819269
803,Avda. JimÃ©nez Becerril (F. OdontologÃ­a),37.406979,-5.9932137
804,Medina y Galnares (Pol.Ind. S. Jeronimo),37.427143,-5.9815192
805,AntioquÃ­a (Antonio Momplet),37.398136,-5.9564242
806,Av. Asoc. de Vecinos (Av. Mujer Trabaj.),37.411762,-5.9672284
807,Avda. Jerez (Hospital Fremap),37.343338,-5.9741592
808,Torneo (Barqueta),37.403599,-5.9952335
809,Torneo (Barqueta),37.403564,-5.9952145
810,Torneo (Barqueta),37.403019,-5.9965181
811,Avenida Holanda (ParanÃ¡),37.354362,-5.9817014
812,Avenida Italia (Ciudad deportiva),37.351128,-5.9810886
813,Avda. La Paz (Rda. Tamarguillo),37.368851,-5.9684191
814,Avenida Italia (Ciudad deportiva),37.351303,-5.9805641
815,Emilio Lemos  Avda (Centro de Salud),37.400013,-5.9259439
816,BergantÃ­n (Fragata),37.350475,-5.9789228
817,Avda. Reino Unido (NÂª SÂª del Pilar),37.348999,-5.9770212
818,Resolana (Barqueta),37.403683,-5.9944286
819,Alcalde Manuel del Valle (Kansas City),37.397121,-5.9666867
820,Av. La AeronÃ¡utica (Edificio Helios),37.38842,-5.9200749
821,La Florida,37.388405,-5.9838743
822,Glta. Letonia (C.Salud Bermejales),37.346073,-5.9757471
823,Avda. Alemania (Estrasburgo),37.3461,-5.978075
824,Av. Kansas City (Ctra. Carmona),37.402599,-5.9594002
825,Avda. Fernando Corral,37.406845,-5.9217167
826,Av. Ciudad de Chiva (Avda. Turia),37.410194,-5.9261475
827,Av. Ciudad de Chiva (MaraÃ±on Lavin),37.409206,-5.9234657
828,Av. Ciudad de Chiva (C.P. Arrayanes),37.408329,-5.9211588
829,Torneo (Estacion Plza de Armas),37.391144,-6.0031056
830,AutovÃ­a Utrera (Ciudad deportiva),37.354008,-5.946146
831,Concej. JimÃ©nez Becerril (Gta. OlÃ­mpica),37.412216,-5.9891024
832,Concejal JimÃ©nez Becerril (Barqueta),37.404465,-5.9948688
833,AutovÃ­a Utrera (Pablo Olavide),37.354237,-5.9458027
834,Concejal JimÃ©nez Becerril (Barqueta),37.404476,-5.9952693
835,Avenida de Andalucia (Los Arcos),37.387371,-5.9613171
836,Ronda de PÃ­o XII (BegoÃ±a),37.407154,-5.9782524
837,Ingeniero La Cierva (Marco Polo),37.373909,-5.9473047
838,Ingeniero La Cierva (Gabriela Mistral),37.372482,-5.9491529
839,Ingeniero La Cierva (Los Gavilanes),37.371101,-5.950942
840,Los Gavilanes (Centro deportivo),37.372227,-5.9520969
841,Los Gavilanes (Barriada Juan XXIII),37.374393,-5.9531426
842,Avenida Llanes (Miraflores),37.404987,-5.9745669
843,Avenida Llanes (Cisneo Alto),37.404839,-5.9739285
844,Apeadero San Bernardo,37.378326,-5.979352
845,Avenida Llanes (Carretera Carmona),37.403267,-5.9710588
846,8 de Marzo (Melchor de AlcÃ¡zar),37.368324,-5.9536028
847,Avenida Llanes (Carretera Carmona),37.403236,-5.9712677
848,Inca Garcilaso (World Trade Center),37.395054,-6.0101652
849,Paseo de Europa (Lyon),37.348026,-5.9797058
850,Avenida Francia (Avenida Grecia),37.347893,-5.9839492
851,Av. Las LetanÃ­as (Inst. Dominguez Ortiz),37.363243,-5.9662089
852,Escultor SebastiÃ¡n Santos,37.359695,-5.9623466
853,JosÃ© GalÃ¡n Merino (Cantina),37.420483,-5.9870982
854,Avda. La Paz (Ctra. Su Eminencia),37.362083,-5.9605012
855,Avenida de La Paz (Torre de David),37.363625,-5.9623895
856,Avenida de La Paz (Reina de Los Ã�ngeles),37.365578,-5.9644389
857,Avenida Italia (Grecia),37.350296,-5.9853601
858,Avenida Italia (Siena),37.3508,-5.9822354
859,Cortijo Las Casillas (Rda. Supernorte),37.423225,-5.9585166
860,Avenida Finlandia (Polonia),37.344193,-5.9754105
861,Poeta Manuel BenÃ­tez (P. GonzÃ¡lez Abato),37.363464,-5.9739337
862,MarquÃ©s Luca de Tena (Virgen del RocÃ­o),37.362106,-5.9768095
863,MarquÃ©s Luca de Tena (Virgen del RocÃ­o),37.362007,-5.9766588
864,MarquÃ©s Luca de Tena (Hospital V.Rocio),37.360733,-5.9804997
865,Bueno Monreal (Tabladilla),37.368351,-5.9828386
866,MarquÃ©s Luca de Tena (La Palmera),37.360256,-5.9818625
867,Poeta BenÃ­tez Carrasco (Ronda La Oliva),37.363518,-5.9736495
868,Avda. Reino Unido (Bolonia),37.347916,-5.9767342
869,Universidad Pablo Olavide,37.354397,-5.9429488
870,Ctra. Pino Montano (Finca EncarnaciÃ³n),37.428864,-5.9450412
871,Cortijo de Las Casillas (Alfareros),37.421539,-5.9598041
872,La Palmera (Bueno Monreal),37.367428,-5.9865189
873,La Palmera (Bueno Monreal),37.367298,-5.9867764
874,Ulpiano Blanco (Aerop. Viejo),37.415947,-5.9335828
875,Aux. AutovÃ­a Madrid (Ulpiano Blanco),37.413719,-5.932848
876,Ctra. El Gordillo (Control de Vuelo),37.439789,-5.9389324
877,Ctra. El Gordillo (Hiedra),37.446007,-5.9363508
878,Avda. El Greco (AgustÃ­n Moreto),37.388855,-5.9661903
879,Avda. Bellavista (Asencio y Toledo),37.324474,-5.9685373
880,Poeta BenÃ­tez Carrasco (Avenida La Paz),37.368568,-5.9695458
881,Plaza de La Contratacion,37.384029,-5.9925919
882,PagÃ©s del Corro (Victoria),37.38229,-6.0017915
883,Reyes CatÃ³licos (Pastor y Landero),37.388023,-6.0008659
884,PagÃ©s del Corro (R. Salas GonzÃ¡lez),37.385429,-6.0068016
885,San Vicente de PaÃºl (Ig. GÃ³mez MillÃ¡n),37.38435,-6.009017
886,Telegrafistas (Ronda Norte),37.416801,-5.9669495
887,Amador de Los RÃ­os (Puerta Carmona),37.388844,-5.9824953
888,Recaredo (San Roque),37.391544,-5.9841237
889,Recaredo (San Roque),37.391251,-5.9842367
890,PagÃ©s del Corro (San Jacinto),37.383408,-6.004704
891,JosÃ© de GÃ¡lvez (PabellÃ³n de AndalucÃ­a),37.405594,-5.9987311
892,Alfredo Kraus,37.373192,-6.008604
893,RamÃ³n de Carranza (Oficina de Lipasam),37.371593,-6.0051041
894,Estonia (Av. Irlanda),37.342903,-5.9783869
895,GarcÃ­a Morato (Carlos Haya),37.367794,-6.0076332
896,Alfonso de Orleans (GarcÃ­a Morato),37.367718,-6.0041919
897,RamÃ³n de Carranza (Oficina Lipasam),37.371689,-6.0048409
898,Estaca de Vares (Brunete),37.384064,-5.9182835
899,Plaza Chapina (Castilla),37.389603,-6.0078907
900,HespÃ©rides (Baltasar de AlcÃ¡zar),37.401287,-5.9658093
901,Glta. Letonia (Sta.M. de La Cabeza),37.346653,-5.9753609
902,Baltasar de AlcÃ¡zar (SÃ¡nchez Samaniego),37.401264,-5.9675045
903,MenÃ©ndez Pelayo (Juzgados),37.382374,-5.9876776
904,Estrella Vega,37.427673,-5.969224
905,Prado San SebastiÃ¡n (Carlos V,37.380516,-5.9861436
906,Prado San SebastiÃ¡n (Carlos V,37.380455,-5.9858751
907,Prado San SebastiÃ¡n (Avenida El Cid),37.380356,-5.9890938
909,Bueno Monreal (Gerardo Diego),37.36882,-5.9798241
910,HespÃ©rides (Alcalde Manuel del Valle),37.400906,-5.9666276
911,Escultor Seb. Santos (Parque Bomberos),37.360691,-5.960362
912,Pino PiÃ±onero (Pino Central),37.377224,-5.9257722
913,HespÃ©rides (Viviendas de Renfe),37.401638,-5.9656086
914,Pino Silvestre (S. Jose de Palmete),37.37571,-5.9301496
915,Apeadero San Bernardo,37.378395,-5.9796338
916,Avenida Carlos V (Prado San SebastiÃ¡n),37.380428,-5.9862719
917,MenÃ©ndez Pelayo (Juzgados),37.381958,-5.9879136
918,MenÃ©ndez Pelayo (Juzgados),37.382072,-5.9880667
919,Estrella Vega (Estrella ProciÃ³n),37.425659,-5.9704361
920,Plaza Ponce de LeÃ³n,37.393219,-5.9874415
921,Plaza Ponce de LeÃ³n,37.393295,-5.9876614
922,Gran Plaza,37.38142,-5.9665093
923,Gran Plaza,37.381901,-5.966279
924,San Bernardo (EstaciÃ³n CercanÃ­as),37.378155,-5.9793415
925,Parlamento de AndalucÃ­a (Macarena),37.403267,-5.9885464
926,Pino PiÃ±onero (Pino Central),37.377079,-5.9257078
927,RamÃ³n y Cajal (Facultad Empresariales),37.377861,-5.9768577
928,RamÃ³n y Cajal (Facultad Empresariales),37.377506,-5.9764018
929,Avda. Las Ciencias (Edif. AlbÃ©niz),37.393509,-5.9207296
930,Resolana (Barqueta),37.403694,-5.9940505
931,JosÃ© de GÃ¡lvez (Teatro Central),37.408401,-5.9963412
932,JimÃ©nez de Quesada (Puerta Triana),37.390827,-6.0101008
933,Inca Garcilaso (Puerta Triana),37.392914,-6.0104818
934,Apeadero San Bernardo,37.378345,-5.9794912
935,Juan Bautista MuÃ±oz (Esc. de Ingenieros),37.411411,-5.9991522
936,AmÃ©rico Vespucio (F. de ComunicaciÃ³n),37.410278,-6.006866
937,AmÃ©rico Vespucio (PolicÃ­a Local),37.407536,-6.0076089
938,AmÃ©rico Vespucio (Louis Braille),37.405174,-6.0083094
939,AmÃ©rico Vespucio (Monast. de La Cartuja),37.397839,-6.0102
940,Inca Garcilaso (Puerta Triana),37.391556,-6.0110693
941,Estrella Betelgueuse(Glta.Oceanografica),37.425297,-5.9720135
942,Avda. Finlandia (Hungria),37.343506,-5.9804354
943,DÃ±a. MarÃ­a Coronel (San Felipe),37.393841,-5.9895444
944,JosÃ© de GÃ¡lvez (Teatro Central),37.408512,-5.9963679
945,Victoria Kent,37.414806,-5.9745159
946,Estrella Canopus,37.423378,-5.9708867
947,Avenida de AndalucÃ­a (Los Arcos),37.38731,-5.9616385
948,Avenida de AndalucÃ­a (Los Arcos),37.387348,-5.9599299
949,Apeadero San Bernardo,37.3783,-5.9792123
950,Esparteros (Mercado),37.422039,-5.9636984
951,Camino de Los Toros (Enfermeras),37.419971,-5.9660912
952,Parque de DoÃ±ana (Ronda Norte),37.416851,-5.9742451
953,Parque de DoÃ±ana (Ronda Norte),37.416882,-5.9738026
954,Avenida La Barzola (Sancho DÃ¡vila),37.411037,-5.97715
955,Avda. La Barzola (Cazalla de La Sierra),37.411465,-5.9770989
956,Santa Fe (Niebla),37.375153,-6.0048542
957,Santa Fe (Niebla),37.375282,-6.0050259
958,LÃ³pez de Gomara (San MartÃ­n de Porres),37.379868,-6.0087543
959,Cristo de La ExpiraciÃ³n (Puerta Triana),37.390495,-6.0087676
960,Plaza del Duque,37.393177,-5.9958425
961,Estrella Betelgeuse (Agricultores),37.423717,-5.9668422
962,Rda. Tamarguillo (Hipermercado),37.416561,-5.9751463
963,Plaza Ponce de LeÃ³n,37.393291,-5.987514
964,Almirante Topete (Estepa),37.369678,-5.9759078
965,Almirante Topete (C.P. Pedro LeÃ³n),37.369202,-5.9760046
966,Almirante Topete (Ã‰cija),37.366882,-5.9749207
967,Almirante Topete (Alonso Mudarra),37.366524,-5.9754572
968,Alf. Lasso de La Vega (Instit. RamÃ³n C.),37.366337,-5.9729466
969,Estrella Betelgeuse (Estrella Canopus),37.424496,-5.9691596
970,Camino de Los Toros (Corral del Moro),37.421528,-5.9708548
971,Ctra. El PÃ­tamo,37.35096,-5.9448051
972,Victoria Dominguez (C.P. Alberto Lista),37.360222,-5.9731827
973,Victoria Dominguez (Poeta M. Benitez),37.361828,-5.9737301
974,Camino de Los Toros (Mar de AlborÃ¡n),37.420891,-5.9689126
975,Almirante Topete (Coullaut Valera),37.371105,-5.9764013
976,Reina Mercedes (Glta. Alc. Parias Merry),37.356361,-5.9866047
977,Reina Mercedes (Glta. Alc. Parias Merry),37.35614,-5.9862828
978,RamÃ³n Carande (Pedro Salinas),37.371284,-5.9782577
979,RamÃ³n Carande (Pedro Salinas),37.370892,-5.9783864
980,Cardenal Bueno Monreal (C.D. Porvenir),37.368931,-5.9810901
981,Bueno Monreal (Tabladilla),37.368595,-5.9831176
982,Avenida Carlos V (Prado San SebastiÃ¡n),37.380482,-5.9864302
983,Av. Las Ciencias (Edif. Las Camelias),37.391453,-5.9198928
984,Enramadilla (Apeadero San Bernardo),37.378666,-5.9787512
985,Villanueva del PÃ­tamo,37.346432,-5.9482813
986,Ctra. Isla Menor (Inst. La Grasa),37.314262,-5.9709635
987,Avenida Carlos V (Prado San SebastiÃ¡n),37.380344,-5.9859529
988,Avda. Andalucia (Los Pajaros),37.387054,-5.955019
989,Baltasar de AlcÃ¡zar (SÃ¡nchez Samaniego),37.401073,-5.9675474
990,Palmas Altas,37.341366,-5.9766617
991,Navarra (Extremadura),37.423107,-5.9838581
992,Medina y Galnares (Extremadura),37.422798,-5.9830213
993,Alf. Lasso de La Vega (Sierra La Grana),37.366924,-5.9735904
994,Dr. Fedriani (Glta. Los Ferroviarios),37.421478,-5.9825706
995,Dr. Fedriani (Glta. Los Ferroviarios),37.420582,-5.9832573
996,Alondra (Zorzal),37.386066,-5.9546971
997,Medina y Galnares (Calamar),37.428829,-5.9813046
998,Galaxia (Navio Argos),37.383865,-5.9571433
999,Avenida Carlos V (Prado San SebastiÃ¡n),37.380264,-5.9856257
1000,Santander (Tomas de Ibarra),37.383656,-5.9943943
1001,Jesus del Gran Poder (Sta. Barbara),37.396618,-5.9954
1002,Aeropuerto de Sevilla (Salidas),37.423916,-5.8996801
1003,Luna (Paseo de Hiperion),37.43198,-5.9707799
1004,Ronda Padre Pio (Castillo Guardas),37.371437,-5.9406319
1005,Garcia Morato Av. (Airbus),37.366978,-5.9996405
1006,Crta. La Esclusa,37.363113,-6.0013571
1007,Ctra. Su Eminencia (Castillo de Marcheni,37.356541,-5.9756966
1008,San Jose de Palmete (Chucena),37.381172,-5.9386148
1009,Avda.Roma (Palacio de San Telmo),37.38073,-5.9939785
1010,Estrecho de Magallanes,37.372326,-5.9439068
1011,Av.Jerez (Ntra. Sra. del Pilar),37.349216,-5.9763293
1012,Av. Jerez (P.I. Pineda),37.335949,-5.9696536
1013,J.A. Cavestany (Juan de Vera),37.389492,-5.981348
1014,J.A.Cavestany (Enrique Marco Dorta),37.390095,-5.9801893
1017,Estrella Canopus (Estrella Altair),37.427113,-5.9686289
1018,Estrella Canopus (Estrella Albireo),37.429337,-5.9674916
1022,Prado (Bajada),37.380558,-5.9867043
1023,Plaza Duque (Bajada),37.393265,-5.9960785
3000,Prado San SebastiÃ¡n,37.380882,-5.9869909
3001,Puerta Jerez,37.382206,-5.9924731
3002,Archivo de Indias,37.3848,-5.993793
3004,Plaza Nueva,37.388229,-5.9952512
3005,Archivo de Indias,37.384663,-5.9938307
3006,Puerta Jerez,37.382061,-5.9923339
3007,Prado San SebastiÃ¡n,37.380768,-5.9869428
3008,San Bernardo,37.378582,-5.9787831
3009,San Bernardo,37.378727,-5.9790087
